[
  {
    "filestem": "PC041485",
    "label": "Paulette",
    "datestamp": "2018-12-04 16:41:28",
    "coordinates": {
      "lat": 51.0590552,
      "lon": 3.7246938
    },
    "streetname": "Goudstraat"
  },
  {
    "filestem": "PC041489",
    "label": "Miss Åžeruza",
    "datestamp": "2018-12-04 17:17:40",
    "coordinates": {
      "lat": 51.0617416,
      "lon": 3.6999465
    },
    "streetname": "Bevrijdingslaan"
  },
  {
    "filestem": "PC051492",
    "label": "Haroon Nachtwinkel",
    "datestamp": "2018-12-05 13:26:00",
    "coordinates": {
      "lat": 51.0497246,
      "lon": 3.7203319
    },
    "streetname": "Sluizekenstraat"
  },
  {
    "filestem": "PC051493",
    "label": "Volkshuis",
    "datestamp": "2018-12-05 13:28:00",
    "coordinates": {
      "lat": 51.0605693,
      "lon": 3.7232712
    },
    "streetname": "Sleepstraat"
  },
  {
    "filestem": "PC061495",
    "label": "El Baraka",
    "datestamp": "2018-12-06 08:49:00",
    "coordinates": {
      "lat": 51.062012,
      "lon": 3.6975272
    },
    "streetname": "Bevrijdingslaan"
  },
  {
    "filestem": "PC061496",
    "label": "Wassalon Pleintje",
    "datestamp": "2018-12-06 08:53:00",
    "coordinates": {
      "lat": 51.0592164,
      "lon": 3.7018085
    },
    "streetname": "Emilius Seghersplein"
  },
  {
    "filestem": "PC061497",
    "label": "Snack Marrakech",
    "datestamp": "2018-12-06 08:53:30",
    "coordinates": {
      "lat": 51.0589094,
      "lon": 3.702206
    },
    "streetname": "Phoenixstraat"
  },
  {
    "filestem": "PC061498",
    "label": "Elektro Komfort Chris Feys",
    "datestamp": "2018-12-06 08:54:00",
    "coordinates": {
      "lat": 51.0582297,
      "lon": 3.703233
    },
    "streetname": "Phoenixstraat"
  },
  {
    "filestem": "PC061502",
    "label": "Consouling",
    "datestamp": "2018-12-06 10:28:00",
    "coordinates": {
      "lat": 51.0576767,
      "lon": 3.7242005
    },
    "streetname": "Baudelostraat"
  },
  {
    "filestem": "PC071506",
    "label": "Kapper Muzaffer",
    "datestamp": "2018-12-07 08:40:00",
    "coordinates": {
      "lat": 51.059417,
      "lon": 3.7030978
    },
    "streetname": "Emilius Seghersplein"
  },
  {
    "filestem": "PC071509",
    "label": "Valeir",
    "datestamp": "2018-12-07 10:05:00",
    "coordinates": {
      "lat": 51.0562053,
      "lon": 3.7306453
    },
    "streetname": "Sint-Joriskaai"
  },
  {
    "filestem": "PC071510",
    "label": "Kaaiman",
    "datestamp": "2018-12-07 10:11:00",
    "coordinates": {
      "lat": 51.053163,
      "lon": 3.7280343
    },
    "streetname": "Reep"
  },
  {
    "filestem": "PC081512",
    "label": "Gredis Cafe",
    "datestamp": "2018-12-08 14:23:00",
    "coordinates": {
      "lat": 51.0578132,
      "lon": 3.7014382
    },
    "streetname": "Drongensesteenweg"
  },
  {
    "filestem": "PC081513",
    "label": "Wassalon de Vijfhoek",
    "datestamp": "2018-12-08 14:23:30",
    "coordinates": {
      "lat": 51.0576379,
      "lon": 3.701001
    },
    "streetname": "Ooievaarstraat"
  }
]

